City_ID,City,Lat,Lng,Max Temp,Humidity,Cloudiness,Wind Speed,Country,Date
0,tzaneen,-23.8332,30.1635,19.26,91,73,0.73,ZA,1702004976
1,port-aux-francais,-49.35,70.2167,4.49,85,97,15.54,TF,1702004976
2,naze,28.3667,129.4833,17.57,58,0,2.53,JP,1702004976
3,severo-yeniseyskiy,60.3725,93.0408,-31.9,93,100,1.34,RU,1702004977
4,port alfred,-33.5906,26.891,16.77,87,11,1.34,ZA,1702004977
5,mossel bay,-34.1831,22.146,18.39,82,0,6.65,ZA,1702004977
6,petropavlovsk-kamchatsky,53.0452,158.6483,-3.67,77,75,4.0,RU,1702004978
7,kisvarda,48.2167,22.0833,-2.53,98,77,1.59,HU,1702004978
8,yellowknife,62.456,-114.3525,-15.9,95,100,2.24,CA,1702004978
9,ikovka,55.6089,64.9375,-26.08,93,6,1.68,RU,1702004979
10,east london,-33.0153,27.9116,20.22,81,13,2.86,ZA,1702004979
11,usogorsk,63.4106,48.6872,-29.63,99,17,0.38,RU,1702004979
12,lompoc,34.6391,-120.4579,14.4,77,0,8.49,US,1702004980
13,waingapu,-9.6567,120.2641,30.63,66,98,2.18,ID,1702004980
14,poronaysk,49.2167,143.1167,-1.3,65,100,5.88,RU,1702004980
15,senanga,-16.1167,23.2667,21.48,67,23,1.27,ZM,1702004981
16,college,64.8569,-147.8028,-18.08,81,75,0.0,US,1702004721
17,coquimbo,-29.9533,-71.3436,15.73,84,15,1.87,CL,1702004981
18,avarua,-21.2078,-159.775,26.03,65,100,7.2,CK,1702004982
19,port moresby,-9.4431,147.1797,29.56,62,87,3.88,PG,1702004696
20,georgetown,5.4112,100.3354,29.96,74,20,4.12,MY,1702004922
21,thompson,55.7435,-97.8558,-6.56,97,100,1.28,CA,1702004982
22,vorgashor,67.5833,63.95,-24.7,99,100,1.57,RU,1702004982
23,waitangi,-43.9535,-176.5597,13.79,67,86,7.61,NZ,1702004987
24,santarem,-2.4431,-54.7083,28.07,78,0,3.09,BR,1702004990
25,winnemucca,40.973,-117.7357,3.03,70,40,6.69,US,1702004990
26,pokhara,28.2333,83.9833,15.76,72,1,0.45,NP,1702005001
27,bilibino,68.0546,166.4372,-36.82,99,63,1.06,RU,1702005001
28,grytviken,-54.2811,-36.5092,-1.32,88,60,4.53,GS,1702005001
29,jasrana,27.25,78.6833,19.46,51,86,1.56,IN,1702005001
30,port lincoln,-34.7333,135.8667,23.54,52,100,4.19,AU,1702005002
31,adamstown,-25.066,-130.1015,23.01,78,87,4.21,PN,1702005012
32,papatowai,-46.5619,169.4708,17.52,54,100,4.72,NZ,1702005012
33,jianshui,23.6363,102.8264,18.13,75,100,2.75,CN,1702005013
34,tual,-5.6667,132.75,28.89,70,98,0.91,ID,1702005021
35,machico,32.7,-16.7667,19.28,81,20,1.54,PT,1702005022
36,columbus,39.9612,-82.9988,8.01,69,75,4.12,US,1702004825
37,tolanaro,-25.0319,46.9987,23.21,86,99,6.18,MG,1702005023
38,yangshuo,24.7808,110.4897,20.81,41,10,1.51,CN,1702005024
39,isla vista,34.4133,-119.861,16.1,60,0,2.06,US,1702005024
40,bikenibeu village,1.3673,173.1241,26.98,89,100,2.06,KI,1702005024
41,puerto natales,-51.7236,-72.4875,8.29,90,92,1.53,CL,1702005025
42,el nido,11.1858,119.3956,28.6,74,97,5.68,PH,1702005026
43,arraial do cabo,-22.9661,-42.0278,23.72,92,20,6.45,BR,1702004958
44,bazarnyy karabulak,52.2683,46.4144,-22.54,100,13,2.14,RU,1702005027
45,ganganagar,29.9167,73.8833,15.97,31,0,0.7,IN,1702004798
46,bredasdorp,-34.5322,20.0403,16.78,80,0,3.22,ZA,1702005028
47,ghadamis,30.1337,9.5007,10.94,77,7,2.31,LY,1702005028
48,alaghsas,17.0187,8.0168,19.38,19,93,3.18,NE,1702004922
49,olonkinbyen,70.9221,-8.7187,-3.08,76,85,5.63,SJ,1702005029
50,bethel,41.3712,-73.414,1.08,84,21,1.79,US,1702004838
51,tazovsky,67.4667,78.7,-27.31,93,6,5.82,RU,1702005029
52,toliara,-23.35,43.6667,24.83,66,96,2.83,MG,1702005030
53,atafu village,-8.5421,-172.5159,28.8,73,82,1.6,TK,1702005030
54,kaohsiung,22.6163,120.3133,26.97,63,75,1.54,TW,1702004947
55,kodiak,57.79,-152.4072,-3.27,54,0,5.14,US,1702005031
56,hamilton,39.1834,-84.5333,9.89,63,100,4.12,US,1702004846
57,albany,42.6001,-73.9662,-0.91,88,75,0.29,US,1702004931
58,kpandae,8.4689,-0.0113,26.06,58,66,1.42,GH,1702005032
59,porto novo,6.4965,2.6036,26.36,84,99,1.98,BJ,1702005033
60,ushuaia,-54.8,-68.3,6.79,86,82,8.05,AR,1702005033
61,udachny,66.4167,112.4,-28.64,82,100,1.55,RU,1702005034
62,likasi,-10.9814,26.7333,16.45,96,96,0.86,CD,1702005034
63,acapulco de juarez,16.8634,-99.8901,27.9,83,40,2.57,MX,1702004748
64,idfu,24.9803,32.8747,17.08,36,0,3.06,EG,1702005035
65,pandan,14.0453,124.1694,28.77,72,97,4.09,PH,1702005036
66,ghat,24.9647,10.1728,13.57,38,5,2.96,LY,1702005036
67,whitehorse,60.7161,-135.0538,-4.83,85,100,5.81,CA,1702004883
68,klyuchi,52.2667,79.1667,-22.75,74,95,3.53,RU,1702005037
69,bechar,31.6167,-2.2167,14.55,42,100,2.19,DZ,1702005037
70,easton,40.6884,-75.2207,3.25,86,55,1.57,US,1702004424
71,timmins,48.4669,-81.3331,-3.1,100,100,2.06,CA,1702004859
72,mata-utu,-13.2816,-176.1745,28.48,78,99,6.21,WF,1702005038
73,ancud,-41.8697,-73.8203,9.15,90,0,1.5,CL,1702005038
74,berriane,32.8265,3.7669,13.08,64,63,3.62,DZ,1702005039
75,peace river,56.2501,-117.286,-3.46,68,16,1.93,CA,1702004844
76,edinburgh of the seven seas,-37.0676,-12.3116,14.95,85,100,7.25,SH,1702005039
77,namibe,-15.1961,12.1522,22.95,75,100,4.18,AO,1702005039
78,port mathurin,-19.6833,63.4167,25.94,74,6,3.48,MU,1702004930
79,nicoya,10.1483,-85.452,23.56,84,11,3.47,CR,1702005040
80,cockburn town,21.4612,-71.1419,25.23,69,100,7.82,TC,1702005020
81,taoudenni,22.6783,-3.9836,19.21,30,87,4.55,ML,1702004947
82,new norfolk,-42.7826,147.0587,21.72,22,86,1.74,AU,1702005041
83,bor,56.3567,44.0669,-17.04,99,85,1.86,RU,1702005042
84,iqaluit,63.7506,-68.5145,-15.11,93,8,3.04,CA,1702005042
85,jamestown,42.097,-79.2353,3.77,99,0,1.54,US,1702004932
86,sirte,31.2089,16.5887,17.72,70,97,8.7,LY,1702005042
87,enewetak,11.3474,162.3373,27.81,78,91,8.59,MH,1702005043
88,bonthe,7.5264,-12.505,25.55,84,0,1.11,SL,1702005043
89,blackmans bay,-43.0167,147.3167,21.07,64,76,0.89,AU,1702005043
90,utrik,11.2278,169.8474,27.59,76,68,9.99,MH,1702005044
91,udayagiri,20.1333,84.3833,19.73,81,29,1.4,IN,1702005044
92,sal rei,16.1833,-22.9167,24.45,75,0,6.43,CV,1702005044
93,crane,31.3974,-102.3501,16.23,52,0,6.36,US,1702005044
94,tura,25.5198,90.2201,18.38,86,71,1.68,IN,1702005045
95,boca suno,-0.7167,-77.1333,22.34,88,100,0.2,EC,1702005045
96,gazli,40.1333,63.45,2.54,36,100,2.84,UZ,1702005045
97,praia da vitoria,38.7333,-27.0667,19.31,98,100,13.33,PT,1702005045
98,puerto ayora,-0.7393,-90.3518,24.19,96,45,2.24,EC,1702005046
99,san patricio,28.017,-97.5169,22.13,77,99,6.37,US,1702004965
100,ilulissat,69.2167,-51.1,-4.99,68,75,1.54,GL,1702005046
101,dunedin,-45.8742,170.5036,14.99,72,100,3.53,NZ,1702005034
102,barah,13.7,30.3667,17.86,28,6,3.61,SD,1702005047
103,la tour-du-pin,45.5667,5.45,7.59,94,100,1.76,FR,1702005047
104,kapuskasing,49.4169,-82.4331,-2.11,91,99,2.07,CA,1702005047
105,nova sintra,14.8667,-24.7167,21.89,68,2,2.75,CV,1702005047
106,punta arenas,-53.15,-70.9167,7.06,81,0,0.0,CL,1702004902
107,abancay,-13.6339,-72.8814,16.18,90,99,1.6,PE,1702005048
108,al muwayh,22.4333,41.7583,17.14,30,0,4.94,SA,1702005048
109,opuwo,-18.0607,13.84,22.61,39,86,1.19,NA,1702005048
110,zgurovka,50.5028,31.7849,-3.36,96,100,5.48,UA,1702005049
111,havre,49.5833,0.3333,8.87,93,75,5.14,FR,1702005049
112,la'ie,21.6477,-157.9253,27.25,67,19,0.89,US,1702005049
113,hwange,-18.3693,26.5019,23.89,46,51,1.31,ZW,1702005050
114,san pedro pochutla,15.7333,-96.4667,24.26,72,18,1.59,MX,1702005050
115,vilyuysk,63.7553,121.6247,-45.56,100,97,1.34,RU,1702005050
116,along,28.1667,94.7667,16.75,80,99,1.04,IN,1702005051
117,kavaratti,10.5669,72.642,28.25,67,100,3.53,IN,1702005051
118,turochak,52.2576,87.1224,-17.34,97,100,0.81,RU,1702005051
119,westport,41.1415,-73.3579,2.9,86,0,2.06,US,1702005014
120,mar del plata,-38.0023,-57.5575,14.49,80,0,4.02,AR,1702004852
121,badger,64.8,-147.5333,-18.13,82,40,0.0,US,1702005052
122,ribeira grande,38.5167,-28.7,19.87,95,100,10.28,PT,1702005052
123,invercargill,-46.4,168.35,16.85,60,100,4.58,NZ,1702005052
124,longyearbyen,78.2186,15.6401,-1.09,69,40,6.69,SJ,1702005053
125,anna,51.4842,40.4299,-8.57,89,67,5.05,RU,1702005053
126,auki,-8.7676,160.7034,29.89,69,53,5.09,SB,1702005053
127,wailua homesteads,22.0669,-159.378,25.44,81,75,3.6,US,1702005054
128,dumka,24.2667,87.25,19.3,85,88,3.74,IN,1702005054
129,yallahs,17.8748,-76.5624,27.1,84,22,4.95,JM,1702005054
130,afaahiti,-17.75,-149.2833,25.93,85,100,8.6,PF,1702005055
131,lebu,-37.6167,-73.65,12.08,86,0,6.71,CL,1702005055
132,timon,-5.0942,-42.8367,29.88,62,0,3.09,BR,1702005055
133,st. john's,47.5649,-52.7093,-2.79,82,82,7.6,CA,1702005056
134,sur,22.5667,59.5289,21.94,50,0,0.93,OM,1702005056
135,keflavik,64.0049,-22.5624,0.24,69,0,5.66,IS,1702005056
136,qaqortoq,60.7167,-46.0333,3.18,54,100,6.8,GL,1702004773
137,nuevitas,21.5453,-77.2644,23.95,68,100,5.15,CU,1702004777
138,al kharijah,25.4514,30.5464,14.31,54,51,2.14,EG,1702005057
139,salalah,17.0151,54.0924,22.05,53,20,3.09,OM,1702005057
140,porto velho,-8.7619,-63.9039,26.03,83,0,0.51,BR,1702004926
141,nagqu,31.5,92.0,-6.95,84,100,0.74,CN,1702005058
142,tiksi,71.6872,128.8694,-33.53,100,90,1.69,RU,1702005059
143,valparaiso,-33.0393,-71.6273,11.8,93,40,1.03,CL,1702004987
144,dedougou,12.4667,-3.4667,23.36,14,100,3.56,BF,1702005059
145,hawaiian paradise park,19.5933,-154.9731,24.73,82,75,3.6,US,1702005059
146,dudinka,69.4058,86.1778,-31.85,96,7,2.68,RU,1702005060
147,shizunai-furukawacho,42.3339,142.3669,3.4,57,96,9.87,JP,1702005060
148,hermanus,-34.4187,19.2345,17.89,85,10,2.89,ZA,1702005053
149,qui nhon,13.7667,109.2333,24.39,87,95,3.4,VN,1702005061
150,margaret river,-33.95,115.0667,19.07,53,32,7.0,AU,1702005061
151,carnarvon,-24.8667,113.6333,24.24,54,0,9.36,AU,1702005033
152,vila franca do campo,37.7167,-25.4333,19.23,99,100,8.38,PT,1702004871
153,chonchi,-42.6128,-73.8092,9.56,94,1,1.32,CL,1702005062
154,aroma,15.8167,36.1333,23.05,64,2,2.54,SD,1702005062
155,acarau,-2.8856,-40.12,26.74,79,78,6.59,BR,1702005062
156,levuka,50.1834,-105.4011,0.62,96,100,6.58,CA,1702005062
157,corner brook,48.9667,-57.9484,-3.5,90,100,6.42,CA,1702004845
158,berezovyy,51.6667,135.7,-10.33,52,7,1.59,RU,1702005063
159,isafjordur,66.0755,-23.124,-2.6,79,59,3.65,IS,1702005063
160,cabo san lucas,22.8909,-109.9124,25.28,66,0,3.6,MX,1702004579
161,ibateguara,-8.9725,-35.9394,20.44,95,77,1.63,BR,1702005064
162,saint-hyacinthe,45.6168,-72.9491,-18.78,100,54,1.05,CA,1702004822
163,hit,33.6416,42.8251,16.89,60,100,1.69,IQ,1702005065
164,fray luis beltran,-39.3167,-65.7667,19.82,56,71,3.84,AR,1702005065
165,thinadhoo,0.5333,72.9333,28.11,76,100,7.0,MV,1702005066
166,katsuura,35.1333,140.3,14.85,38,0,2.18,JP,1702005066
167,quatre cocos,-20.2078,57.7625,27.27,75,61,2.98,MU,1702005066
168,machala,-3.2667,-79.9667,24.3,90,95,1.21,EC,1702004748
169,yemetsk,63.4721,41.7941,-22.6,100,88,1.36,RU,1702005067
170,kalmunai,7.4167,81.8167,27.4,80,42,2.08,LK,1702005067
171,lihue,21.9789,-159.3672,25.77,76,75,3.6,US,1702004933
172,kidal,18.4411,1.4078,21.5,15,19,2.95,ML,1702005068
173,tambopata,-12.7333,-69.1833,24.02,91,100,0.66,PE,1702005068
174,ta`u,-14.2336,-169.5144,27.36,83,93,5.7,AS,1702005068
175,sao jose da coroa grande,-8.8978,-35.1478,25.13,82,97,3.61,BR,1702005068
176,gracemere,-23.4333,150.45,29.95,48,0,6.69,AU,1702005069
177,shenjiamen,29.9576,122.298,16.52,71,22,9.55,CN,1702004948
178,iskateley,67.6803,53.1512,-14.43,96,100,3.58,RU,1702005069
179,daru,-9.0763,143.2092,28.74,67,81,3.89,PG,1702005069
180,gizo,-8.103,156.8419,29.1,74,98,7.05,SB,1702005069
181,poso,-1.3959,120.7524,30.53,65,94,1.87,ID,1702005070
182,talnakh,69.4865,88.3972,-33.84,85,5,1.48,RU,1702005070
183,hithadhoo,-0.6,73.0833,27.98,75,95,4.74,MV,1702005070
184,vernon,50.2581,-119.2691,4.23,87,100,0.97,CA,1702005071
185,kununurra,-15.7667,128.7333,35.99,38,40,3.6,AU,1702004923
186,tomatlan,19.9333,-105.25,22.51,81,36,1.24,MX,1702005071
187,markovo,57.3206,107.0881,-36.82,95,67,0.79,RU,1702005071
188,inhambane,-23.865,35.3833,23.42,83,100,3.69,MZ,1702005045
189,luderitz,-26.6481,15.1594,15.93,72,0,5.46,NA,1702004979
190,dazhong,33.1997,120.4578,19.99,30,0,6.37,CN,1702005072
191,axim,4.8699,-2.2405,25.79,86,100,2.55,GH,1702005072
192,bafoulabe,13.8065,-10.8321,24.84,18,57,1.51,ML,1702005073
193,fale old settlement,-9.3852,-171.2468,27.59,80,100,5.69,TK,1702005073
194,hirara,24.8,125.2833,22.31,70,77,6.61,JP,1702005073
195,dalbandin,28.8947,64.4101,12.3,19,0,1.28,PK,1702005075
196,haiku-pauwela,20.9219,-156.3051,25.14,71,40,2.57,US,1702005075
197,carutapera,-1.195,-46.02,25.71,85,20,2.9,BR,1702005075
198,suvorovskaya,44.1942,42.6539,0.97,96,100,4.51,RU,1702005075
199,codrington,-38.2667,141.9667,19.75,71,61,6.07,AU,1702005027
200,saipan,15.1355,145.701,29.39,74,40,7.2,MP,1702005077
201,altay,47.8667,88.1167,-15.4,80,8,3.55,CN,1702005078
202,umatilla,45.5001,-118.5014,1.29,86,100,2.57,US,1702005078
203,den burg,53.0542,4.7972,2.78,93,100,5.14,NL,1702005079
204,igarka,67.4667,86.5833,-31.23,93,48,3.85,RU,1702005080
205,queenstown,-31.8976,26.8753,15.34,73,0,1.26,ZA,1702005082
206,san jose del guaviare,2.5729,-72.6459,23.24,90,76,1.48,CO,1702005083
207,port augusta,-32.5,137.7667,44.27,10,91,14.85,AU,1702005084
208,labuan,5.2767,115.2417,26.48,81,100,1.66,MY,1702004860
209,sanxenxo,42.4,-8.807,12.94,73,0,7.68,ES,1702005085
210,mersa matruh,31.3525,27.2453,18.48,52,100,6.29,EG,1702005086
211,fada,9.5667,8.3,19.99,21,100,2.68,NG,1702005087
212,rochester,43.1548,-77.6156,3.57,86,100,2.57,US,1702004761
213,egilsstadir,65.2653,-14.3948,-6.3,93,54,1.35,IS,1702005088
214,vila velha,-20.3297,-40.2925,25.97,81,20,5.14,BR,1702005089
215,al kharj,24.155,47.3346,13.32,19,0,1.84,SA,1702005090
216,namdrik,5.5994,168.1028,28.31,77,15,7.78,MH,1702005091
217,wabag,-5.4781,143.7021,18.39,88,100,1.59,PG,1702005091
218,rio san juan,19.6439,-70.0763,25.64,77,34,7.32,DO,1702005092
219,chipata,-13.6333,32.65,18.96,79,90,0.92,ZM,1702005092
220,fort bragg,35.139,-79.006,8.23,62,0,2.57,US,1702005092
221,holualoa,19.6228,-155.9522,25.91,70,75,5.14,US,1702005092
222,kingston,17.997,-76.7936,26.78,86,7,1.99,JM,1702005093
223,remire-montjoly,4.9167,-52.2667,25.02,94,75,3.09,GF,1702005094
224,solnechnyy,50.7214,136.6319,-17.21,76,18,0.87,RU,1702005094
225,ypsonas,34.6884,32.9574,14.54,82,75,1.03,CY,1702005095
226,ongjin,37.9347,125.3619,12.69,83,30,7.49,KP,1702005095
227,mashhad,36.297,59.6062,7.08,49,0,4.12,IR,1702005096
228,fortuna,40.5982,-124.1573,8.7,95,75,0.0,US,1702005096
229,la ronge,55.1001,-105.2842,-7.12,95,100,2.28,CA,1702004929
230,tayu,-6.5397,111.0518,31.3,63,100,2.49,ID,1702005097
231,kutum,14.2,24.6667,14.9,21,100,1.23,SD,1702005097
232,price,39.5994,-110.8107,3.95,51,0,6.17,US,1702005098
233,barclayville,4.6797,-8.2339,23.99,91,92,0.58,LR,1702005099
234,west island,-12.1568,96.8225,27.99,74,40,6.69,CC,1702005099
235,malango,-2.9627,119.9001,24.78,88,100,0.78,ID,1702005100
236,bay harbor,30.1471,-85.6146,10.97,87,40,2.06,US,1702005100
237,stanley,54.868,-1.6985,4.87,96,100,3.09,GB,1702005101
238,touros,-5.1989,-35.4608,26.28,78,37,6.06,BR,1702004962
239,grande prairie,55.1667,-118.8027,-8.9,92,40,0.0,CA,1702004427
240,happy valley-goose bay,53.3168,-60.3315,-4.87,80,100,6.83,CA,1702005061
241,vadso,70.0744,29.7487,-6.91,73,100,12.86,NO,1702005102
242,rio grande,-32.035,-52.0986,17.19,67,77,7.88,BR,1702005023
243,peterhead,57.5058,-1.7981,7.22,93,100,16.01,GB,1702005103
244,mount gambier,-37.8333,140.7667,32.62,29,60,3.09,AU,1702005103
245,tsiombe,-25.3,45.4833,22.48,82,36,5.39,MG,1702004844
246,abadeh,31.1608,52.6506,5.31,51,2,1.78,IR,1702005104
247,constantia,44.1833,28.65,0.39,83,100,6.07,RO,1702005105
248,kuching,1.55,110.3333,31.79,75,40,1.03,MY,1702004913
249,spanish springs,39.6491,-119.7074,4.77,69,0,8.23,US,1702005105
250,palopo,-2.9996,120.1921,30.46,75,100,1.17,ID,1702005106
251,nouadhibou,20.931,-17.0347,20.99,64,1,7.2,MR,1702005106
252,kimbe,-5.5502,150.1429,29.18,79,100,1.79,PG,1702005106
253,weno,7.4515,151.8468,28.97,79,100,4.63,FM,1702004879
254,conde,-7.2597,-34.9075,25.7,83,20,3.09,BR,1702005107
255,tralee,52.2704,-9.7026,9.9,84,100,15.33,IE,1702005107
256,carrizo springs,28.5219,-99.8606,19.34,77,100,2.06,US,1702005108
257,pathein,16.7833,94.7333,28.37,73,18,1.19,MM,1702004895
258,nar'yan-mar,67.6713,53.087,-14.38,96,100,3.58,RU,1702005110
259,lienz,46.8289,12.769,-4.34,61,33,1.9,AT,1702005110
260,bandarbeyla,9.4942,50.8122,21.89,67,6,6.83,SO,1702005111
261,kyren,51.6828,102.1408,-21.14,94,100,0.45,RU,1702005111
262,saint-pierre,-21.3393,55.4781,25.87,83,20,1.54,RE,1702005111
263,kapa'a,22.0752,-159.319,26.18,79,75,3.6,US,1702005112
264,mount pearl,47.5166,-52.7813,-3.25,82,76,4.47,CA,1702005112
265,chibougamau,49.9168,-74.3659,-22.43,100,13,0.59,CA,1702005112
266,fort st. john,56.2499,-120.8529,-6.83,83,100,1.34,CA,1702005087
267,puerto madryn,-42.7692,-65.0385,13.25,64,0,5.52,AR,1702005113
268,petra,30.3222,35.4793,10.0,69,100,1.54,JO,1702005113
269,papao,-17.75,-149.55,26.82,80,100,8.05,PF,1702005114
270,tabou,4.423,-7.3528,24.16,91,56,1.68,CI,1702005114
271,meulaboh,4.1363,96.1285,27.31,77,100,0.64,ID,1702005114
272,labrador city,52.9463,-66.9114,-14.5,95,99,3.85,CA,1702005115
273,verkhnevilyuysk,63.4453,120.3167,-43.47,98,97,1.68,RU,1702005116
274,barcelos,41.5388,-8.6151,15.08,85,2,4.17,PT,1702005116
275,howrah,22.5892,88.3103,20.0,88,75,3.09,IN,1702005117
276,santana,-0.0583,-51.1817,28.1,83,40,4.12,BR,1702005118
277,civitavecchia,42.0933,11.7967,8.68,74,10,2.45,IT,1702005119
278,sinabang,2.4803,96.3801,28.07,76,98,0.85,ID,1702005029
279,martapura,-3.4167,114.85,29.05,74,40,3.09,ID,1702005119
280,prince rupert,54.3161,-130.3201,1.84,99,100,1.49,CA,1702005121
281,mermoz boabab,14.7065,-17.4758,22.31,69,35,8.05,SN,1702005121
282,cacu,-18.5567,-51.1308,25.95,45,18,1.22,BR,1702005122
283,hasaki,35.7333,140.8333,15.22,30,0,2.03,JP,1702005122
284,kaihua,23.3687,104.28,17.95,72,5,5.27,CN,1702005123
285,flying fish cove,-10.4217,105.6791,27.82,78,75,4.63,CX,1702005124
286,callao,-12.0667,-77.15,22.07,88,0,5.14,PE,1702004873
287,balkanabat,39.5108,54.3671,8.56,56,75,2.89,TM,1702004961
288,ishigaki,24.3448,124.1572,22.68,72,54,5.33,JP,1702005126
289,acajutla,13.5928,-89.8275,24.89,71,0,2.32,SV,1702005127
290,la voulte-sur-rhone,44.8007,4.7716,7.2,96,100,1.78,FR,1702005127
291,gadzhiyevo,69.2551,33.3362,-10.01,91,95,7.55,RU,1702005128
292,saldanha,-33.0117,17.9442,17.53,87,0,5.01,ZA,1702005129
293,hami,42.8,93.45,0.56,43,100,4.65,CN,1702005056
294,hassleholm,56.1591,13.7664,0.98,99,100,1.5,SE,1702005130
295,fort mcmurray,56.7268,-111.381,-3.48,69,0,1.99,CA,1702005130
296,okha,53.5739,142.9478,-6.66,94,100,9.62,RU,1702005132
297,chagoda,59.164,35.3285,-22.16,100,100,1.72,RU,1702005133
298,isiro,2.7739,27.616,18.76,98,56,0.68,CD,1702005133
299,akureyri,65.6835,-18.0878,-11.35,97,57,3.0,IS,1702004925
300,tshikapa,-6.4167,20.8,21.35,100,100,1.36,CD,1702005134
301,lupane,-18.9315,27.807,20.96,39,53,3.69,ZW,1702005135
302,mandalgovi,45.7625,106.2708,-10.77,38,21,6.63,MN,1702005135
303,el granada,37.5027,-122.4694,12.28,87,100,2.57,US,1702005137
304,kerikeri,-35.2268,173.9474,22.73,57,0,0.45,NZ,1702005091
305,alofi,-19.0595,-169.9187,29.94,66,75,5.14,NU,1702005138
306,berdigestyakh,62.0989,126.6992,-35.18,95,100,2.42,RU,1702005138
307,chengde,40.9725,117.9361,5.91,36,76,1.3,CN,1702005139
308,almenara,-16.1836,-40.6944,20.27,92,49,0.89,BR,1702005139
309,victoria,22.2855,114.1577,25.03,69,85,0.89,HK,1702005039
310,sola,-13.8833,167.55,27.26,79,100,6.63,VU,1702005141
311,jinchang,38.4953,102.1739,5.45,21,0,1.88,CN,1702005143
312,aoulef,26.9667,1.0833,17.57,34,95,4.01,DZ,1702005144
313,mount isa,-20.7333,139.5,36.87,18,1,2.57,AU,1702005145
314,amursk,50.2261,136.8994,-15.57,86,100,5.14,RU,1702005146
315,san jeronimo de juarez,17.1333,-100.4667,24.25,83,11,1.98,MX,1702005148
316,santa maria,-29.6842,-53.8069,18.81,95,2,3.44,BR,1702005148
317,rongelap,11.1635,166.8941,27.39,83,29,9.42,MH,1702005149
318,vieux-habitants,16.0589,-61.7659,26.51,79,13,8.56,GP,1702005150
319,preobrazheniye,42.9019,133.9064,1.43,41,43,1.13,RU,1702005150
320,bhum,18.4667,75.6667,21.41,69,3,3.69,IN,1702005150
321,caluula,11.9661,50.7569,25.68,59,39,5.88,SO,1702005151
322,warmbad,-28.45,18.7333,15.46,55,0,3.39,NA,1702005152
323,hadibu,12.65,54.0333,25.76,63,9,6.32,YE,1702005154
324,znamensk,48.5842,45.7338,-5.82,89,32,5.82,RU,1702005155
325,santiago de cao,-7.9589,-79.2392,20.07,83,75,4.63,PE,1702005156
326,youkounkoun,12.5333,-13.1333,22.06,38,100,1.69,GN,1702005159
327,terbanggi besar,-4.8667,105.2333,30.25,67,80,0.42,ID,1702005161
328,shache,38.4167,77.2406,6.77,20,100,0.61,CN,1702005162
329,nemuro,43.3236,145.575,2.77,58,34,13.3,JP,1702005162
330,sinsang-ni,39.6503,127.4058,11.2,66,32,1.6,KP,1702005168
331,port hedland,-20.3167,118.5667,38.03,30,7,5.66,AU,1702005170
332,coxim,-18.5067,-54.76,27.61,50,29,2.24,BR,1702004886
333,richards bay,-28.783,32.0377,20.84,94,28,4.41,ZA,1702005170
334,tyukhtet,56.5389,89.3011,-24.08,100,100,1.19,RU,1702005170
335,anadyr,64.75,177.4833,-20.72,84,6,12.0,RU,1702005062
336,nuuk,64.1835,-51.7216,3.34,41,95,6.17,GL,1702005079
337,nishinoomote,30.7333,131.0,15.82,53,0,1.7,JP,1702005172
338,nogliki,51.8333,143.1667,-6.48,94,100,6.71,RU,1702005172
339,aykhal,66.0,111.5,-28.6,100,99,2.39,RU,1702005172
340,yaren,-0.5472,166.916,25.93,88,100,4.7,NR,1702005174
341,san juan del sur,11.2529,-85.8705,25.78,80,2,8.7,NI,1702005174
342,salinas de hidalgo,22.6333,-101.7167,12.62,74,52,4.19,MX,1702005175
343,saint-philippe,-21.3585,55.7679,24.77,91,96,2.07,RE,1702005176
344,bayji,34.9311,43.487,15.42,58,100,1.24,IQ,1702005177
345,bac lieu,9.285,105.7244,28.63,72,96,6.37,VN,1702005060
346,moche,-8.1711,-79.0092,20.1,83,75,4.63,PE,1702005178
347,grantsville,40.5999,-112.4644,3.8,52,100,2.32,US,1702005178
348,mitu,1.1983,-70.1733,22.63,99,100,0.46,CO,1702005179
349,yatou,37.15,122.3833,15.72,49,0,8.08,CN,1702005179
350,sao mateus,-18.7161,-39.8589,22.12,95,0,1.85,BR,1702005180
351,saguenay,48.4168,-71.0657,-14.2,98,57,0.47,CA,1702005180
352,aasiaat,68.7098,-52.8699,-9.22,84,100,1.61,GL,1702005182
353,sao joao da barra,-21.6403,-41.0511,23.5,87,2,1.83,BR,1702005183
354,bangkalan,-7.0455,112.7351,30.97,57,38,1.2,ID,1702005184
355,zbarazh,49.6636,25.7762,-10.38,100,100,1.68,UA,1702005184
356,klaksvik,62.2266,-6.589,6.51,83,99,13.82,FO,1702005185
357,kingaroy,-26.5333,151.8333,33.27,29,0,5.29,AU,1702005185
358,vallenar,-28.5708,-70.7581,17.66,63,0,1.37,CL,1702005186
359,tisul',55.7611,88.3122,-22.88,97,100,2.86,RU,1702005186
360,karachi,24.9056,67.0822,12.9,58,0,0.0,PK,1702004902
361,revda,56.801,59.9303,-34.06,97,5,0.65,RU,1702005189
362,northam,51.0333,-4.2167,12.59,93,14,11.75,GB,1702005190
363,rustaq,23.3908,57.4244,19.49,40,0,0.55,OM,1702005190
364,soio,-6.1349,12.3689,27.43,78,88,5.03,AO,1702005191
365,calatayud,41.3535,-1.6432,12.6,79,100,7.48,ES,1702005192
366,motueka,-41.1333,173.0167,19.2,61,37,3.9,NZ,1702005193
367,bereznik,62.8551,42.7072,-21.47,99,86,1.64,RU,1702005194
368,novaya usman',51.6418,39.4086,-5.53,89,95,4.52,RU,1702005019
369,mukalla,14.5425,49.1242,19.98,65,55,1.71,YE,1702005196
370,kismayo,-0.3582,42.5454,26.58,78,4,4.63,SO,1702004976
371,wynyard,-41.0,145.7167,19.56,68,56,2.34,AU,1702005197
372,montmorillon,46.4167,0.6667,9.94,99,100,3.76,FR,1702005198
373,tallahassee,30.4383,-84.2807,7.96,90,75,0.0,US,1702004989
374,jinghong,21.991,100.7341,23.44,91,98,0.96,CN,1702005201
375,broken hill,-31.95,141.4333,40.88,12,87,14.64,AU,1702005202
376,bayanhongor,46.7167,100.1167,-18.26,76,8,1.27,MN,1702005203
377,hillsborough,37.5741,-122.3794,11.94,85,20,2.57,US,1702005204
378,lodja,-3.4833,23.4333,20.73,100,99,0.78,CD,1702005204
379,illizi,26.4833,8.4667,12.97,40,5,2.34,DZ,1702005205
380,nizhneudinsk,54.9076,99.0276,-26.6,93,95,0.64,RU,1702005036
381,mancio lima,-7.6142,-72.8958,22.64,91,10,1.05,BR,1702005206
382,laojunmiao,39.8333,97.7333,0.8,28,2,1.58,CN,1702005208
383,shingu,33.7333,135.9833,14.35,41,0,1.57,JP,1702004981
384,itamaraca,-7.7478,-34.8256,27.03,80,77,3.84,BR,1702005210
385,idri,27.5,13.2667,11.93,74,0,4.0,LY,1702005210
386,kourou,5.1552,-52.6478,25.03,92,24,4.11,GF,1702005212
387,noumea,-22.2763,166.4572,29.99,99,100,8.28,NC,1702004485
388,barra do bugres,-15.0725,-57.1811,26.7,54,40,0.92,BR,1702005214
389,turpan,42.9333,89.1667,3.49,43,99,0.73,CN,1702005215
390,tezu,27.9167,96.1667,17.45,86,100,0.62,IN,1702005215
391,egersund,58.4513,5.9997,1.72,72,100,11.33,NO,1702005216
392,itoman,26.1247,127.6694,24.21,53,20,5.66,JP,1702005190
393,palmer,42.1584,-72.3287,-0.85,83,75,0.0,US,1702005077
394,nikolayevsk-on-amure,53.1406,140.73,-7.51,76,100,3.48,RU,1702005217
395,berlin,52.5244,13.4105,2.15,96,100,4.12,DE,1702005020
396,camana,-16.6228,-72.7111,20.08,79,80,3.17,PE,1702005217
397,port elizabeth,-33.918,25.5701,18.16,88,75,9.26,ZA,1702004985
398,whakatane,-37.9585,176.9854,22.1,65,69,3.99,NZ,1702005218
399,ingeniero guillermo n. juarez,-23.9,-61.85,22.97,84,89,3.41,AR,1702005218
400,itai,-23.4178,-49.0906,20.49,89,100,1.87,BR,1702005127
401,alta,69.9689,23.2717,-7.41,75,40,6.17,NO,1702005219
402,kovdor,67.5662,30.4758,-17.54,98,100,2.2,RU,1702005219
403,igbara-odo,7.5025,5.0626,22.06,94,100,0.66,NG,1702005219
404,mejit,10.2753,170.8646,27.73,80,97,10.35,MH,1702005022
405,uturoa,-16.7333,-151.4333,27.04,78,61,3.47,PF,1702005220
406,al wajh,26.2455,36.4525,19.97,40,0,2.57,SA,1702004982
407,savanna-la-mar,18.219,-78.1332,25.52,79,54,4.05,JM,1702005221
408,susuman,62.7833,148.1667,-25.57,97,100,0.45,RU,1702005221
409,gifford,27.6753,-80.4092,18.33,82,20,2.57,US,1702005222
410,walvis bay,-22.9575,14.5053,16.16,88,1,2.94,NA,1702005222
411,dryden,49.7833,-92.7503,0.99,77,100,4.06,CA,1702004969
412,ciudad lazaro cardenas,17.9583,-102.2,25.42,78,6,1.13,MX,1702005206
413,tofol,5.3248,163.0078,28.88,84,75,7.2,FM,1702005224
414,pescia,43.897,10.6904,6.09,81,46,1.26,IT,1702005224
415,pisco,-13.7,-76.2167,19.45,82,0,3.09,PE,1702005224
416,ponnani,10.767,75.9252,25.62,84,100,1.88,IN,1702005225
417,zarghun shahr,32.8473,68.4457,-0.25,42,0,1.31,AF,1702005225
418,sisimiut,66.9395,-53.6735,-5.9,71,100,3.5,GL,1702005225
419,kargasok,59.0556,80.8572,-24.46,91,94,3.58,RU,1702005227
420,thunder bay,48.4001,-89.3168,0.89,96,79,3.98,CA,1702005228
421,lautoka,-17.6167,177.4667,32.92,58,40,4.12,FJ,1702005228
422,dagda,56.0951,27.5372,-10.42,95,100,3.12,LV,1702005228
423,urumqi,43.801,87.6005,-4.47,80,0,3.0,CN,1702004954
424,novodvinsk,64.4165,40.8122,-22.14,99,87,1.71,RU,1702005229
425,scarborough,54.2797,-0.4044,5.76,93,100,5.81,GB,1702004468
426,picui,-6.5106,-36.3469,22.35,87,62,7.11,BR,1702005230
427,iquique,-20.2208,-70.1431,18.72,69,33,0.61,CL,1702005230
428,bochum,51.4833,7.2167,4.11,78,100,0.45,DE,1702005230
429,palmas,-10.2128,-48.3603,27.93,78,0,1.54,BR,1702005231
430,zalanga,10.6143,10.1765,18.63,20,65,2.44,NG,1702005231
431,shorapur,16.5167,76.75,21.94,73,75,3.24,IN,1702005232
432,fisterra,42.9049,-9.2629,13.19,71,1,10.19,ES,1702005232
433,nizhnyaya poyma,56.1622,97.1933,-30.24,98,69,1.26,RU,1702005233
434,kurgan,55.45,65.3333,-25.68,94,6,1.41,RU,1702005234
435,mirny,62.5353,113.9611,-39.61,99,98,1.41,RU,1702005234
436,coyhaique,-45.5752,-72.0662,14.34,71,0,1.03,CL,1702005234
437,la cruz,23.9167,-106.9,21.22,67,0,2.64,MX,1702005234
438,brookings,44.3114,-96.7984,6.32,79,0,6.17,US,1702005235
439,luau,-10.7073,22.2247,17.91,97,100,1.2,AO,1702005235
440,farebersviller,49.12,6.872,2.73,92,100,3.61,FR,1702005236
441,dakhla,23.6848,-15.958,19.27,74,42,7.33,EH,1702005236
442,pedro ii,-4.4247,-41.4586,23.31,59,18,0.97,BR,1702004948
443,portland,45.5234,-122.6762,8.13,93,75,3.58,US,1702004846
444,menongue,-14.6585,17.691,17.7,93,95,0.87,AO,1702005237
445,dongola,19.1667,30.4833,16.08,32,32,3.66,SD,1702005237
446,cambria,35.5641,-121.0808,13.75,85,2,1.34,US,1702005237
447,colonia,50.9333,6.95,3.36,80,75,5.66,DE,1702005213
448,waimanalo,21.35,-157.7208,27.21,69,57,0.45,US,1702005238
449,kisanga,-7.4362,37.7034,23.12,95,15,0.51,TZ,1702005238
450,bridlington,54.0831,-0.1919,6.68,93,100,2.68,GB,1702005239
451,maintirano,-18.0667,44.0167,26.0,82,15,1.54,MG,1702005103
452,laguna,38.421,-121.4238,11.27,93,100,0.0,US,1702005239
453,labytnangi,66.6572,66.4183,-24.32,88,70,3.29,RU,1702005239
454,panshan,41.1881,122.0494,9.71,70,99,6.21,CN,1702005240
455,jayapura,-2.5333,140.7,30.66,85,100,3.69,ID,1702005086
456,bondo,3.8146,23.6866,21.56,90,100,0.28,CD,1702005241
457,soure,-0.7167,-48.5233,27.2,82,76,5.36,BR,1702005241
458,kavieng,-2.5744,150.7967,28.27,76,100,2.63,PG,1702005241
459,retreat,38.8245,-85.8533,10.28,59,63,4.96,US,1702005242
460,balqash,46.8481,74.995,-12.67,66,0,8.0,KZ,1702005053
461,bear,39.6293,-75.6583,4.18,84,100,0.0,US,1702005155
462,koutiala,12.3917,-5.4642,24.11,16,85,4.03,ML,1702005243
463,izki,22.9333,57.7667,16.82,46,0,0.59,OM,1702005243
464,artova,40.1158,36.3001,5.76,83,100,3.72,TR,1702005244
465,maicao,11.3832,-72.2432,25.22,85,32,4.74,CO,1702005244
466,suva,-18.1416,178.4415,27.71,78,75,1.54,FJ,1702005244
467,chul'man,56.8479,124.9104,-32.23,94,100,2.06,RU,1702005246
468,popondetta,-8.7537,148.2534,35.78,40,43,3.37,PG,1702005246
469,olyokminsk,60.3736,120.4264,-31.46,91,100,1.38,RU,1702005246
470,pelabuhanratu,-6.9875,106.5514,29.0,74,100,1.46,ID,1702005247
471,hun,29.1268,15.9477,11.72,92,12,3.42,LY,1702005247
472,matthew town,20.95,-73.6667,24.82,73,100,7.43,BS,1702005247
473,taulaga,-11.0553,-171.0883,27.64,81,100,6.25,AS,1702005248
474,maidstone,51.2667,0.5167,9.12,75,100,1.34,GB,1702005249
475,el obeid,13.1842,30.2167,17.57,28,1,3.62,SD,1702005249
476,boa vista,2.8197,-60.6733,25.99,89,40,1.03,BR,1702005249
477,ahuacatlan,21.05,-104.4833,17.39,84,44,1.16,MX,1702005250
478,dzuunmod,48.2199,97.3744,-16.89,92,100,0.89,MN,1702005250
479,ghatal,22.6667,87.7167,20.99,78,40,4.19,IN,1702005250
480,toormina,-30.3526,153.0903,30.59,69,11,6.69,AU,1702005251
481,kuanda,56.3161,116.0806,-27.69,91,100,1.77,RU,1702005251
482,phayakkhaphum phisai,15.5163,103.1937,26.29,54,100,3.31,TH,1702005252
483,khash,28.2211,61.2158,9.2,25,0,0.84,IR,1702005253
484,kirakira,-10.4544,161.9205,28.81,75,66,5.07,SB,1702005253
485,leninskoye,41.7589,69.3864,4.19,71,100,2.54,KZ,1702005253
486,cold lake,54.4502,-110.2017,-5.04,81,13,1.64,CA,1702005210
487,vilhena,-12.7406,-60.1458,21.67,82,20,0.97,BR,1702005020
488,floro,61.5996,5.0328,1.98,60,22,5.14,NO,1702005254
489,robore,-18.3333,-59.75,22.76,82,31,1.83,BO,1702005255
490,kirkwall,58.9848,-2.9587,6.09,87,100,13.89,GB,1702005255
491,essaouira,31.5125,-9.77,17.47,81,31,5.3,MA,1702005256
492,cidreira,-30.1811,-50.2056,19.6,82,98,7.39,BR,1702004951
493,grand falls-windsor,48.9332,-55.6649,-4.16,82,99,2.68,CA,1702005256
494,santa elena de uairen,4.6167,-61.1333,20.49,88,100,0.82,VE,1702005257
495,yuzhno-kurilsk,44.0306,145.8556,3.54,89,100,15.03,RU,1702005257
496,nelidovo,56.2211,32.7774,-14.25,95,100,3.72,RU,1702005257
497,sitka,57.0531,-135.33,2.94,87,40,3.6,US,1702005258
498,huarmey,-10.0681,-78.1522,20.51,87,60,4.43,PE,1702005258
499,villa gesell,-37.2639,-56.973,13.92,67,0,5.17,AR,1702005258
500,brooks,50.5834,-111.8851,-0.54,92,100,3.84,CA,1702005031
501,palikir - national government center,6.9248,158.1611,28.47,79,100,2.57,FM,1702005259
502,sabang,5.8933,95.3214,27.68,80,99,7.09,ID,1702005259
503,vorkuta,67.5,64.0,-24.68,99,100,1.65,RU,1702005000
504,santo antonio,-6.3106,-35.4789,23.7,88,49,2.33,BR,1702005262
505,humahuaca,-23.2054,-65.3505,14.43,70,99,0.55,AR,1702005262
506,las tablas,7.7667,-80.2833,25.65,99,96,6.74,PA,1702005262
507,najran,17.4924,44.1277,11.36,51,8,1.02,SA,1702005263
508,geneina,13.45,22.45,18.26,20,94,3.27,SD,1702005263
509,koysinceq,36.0821,44.6278,11.84,61,99,1.23,IQ,1702005263
510,buta,2.7858,24.73,20.62,99,94,0.33,CD,1702005015
511,khandyga,62.6667,135.6,-27.5,96,100,2.22,RU,1702005264
512,newman,37.3138,-121.0208,12.38,79,91,1.48,US,1702005264
513,gunjur,13.2019,-16.7339,22.04,68,0,3.09,GM,1702005265
514,dalai,45.5,124.3,-4.59,85,100,4.97,CN,1702005265
515,maine soroa,13.2114,12.0241,19.39,21,100,3.87,NE,1702005265
516,swakopmund,-22.6833,14.5333,16.1,89,5,0.45,NA,1702005266
517,novyy turtkul',41.55,61.0167,-5.05,38,97,6.08,UZ,1702005266
518,hinton,53.4001,-117.5857,-3.98,91,100,1.2,CA,1702005266
519,'ain el melh,34.8415,4.1638,8.54,61,100,2.5,DZ,1702005267
520,kolonia,50.9333,6.95,3.36,80,75,5.66,DE,1702005267
521,mercedes,-34.6515,-59.4307,18.25,93,0,2.77,AR,1702005114
522,prado,-17.3411,-39.2208,24.27,88,21,3.68,BR,1702005268
523,prince george,53.9166,-122.753,-4.3,94,100,1.03,CA,1702005268
524,luang namtha,20.9497,101.4011,22.54,82,99,0.83,LA,1702005268
525,tshabong,-26.05,22.45,22.21,17,0,3.46,BW,1702005269
526,tadine,-21.55,167.8833,24.85,68,100,7.37,NC,1702005269
527,shimoda,34.6667,138.95,15.06,56,33,1.84,JP,1702005269
528,lander,42.833,-108.7307,1.45,37,0,3.88,US,1702005270
529,voi,-3.3945,38.563,22.0,94,77,1.21,KE,1702005270
530,wagar,16.1525,36.2032,22.75,69,1,2.45,SD,1702005271
531,zhuanghe,39.7008,122.9911,10.18,86,88,1.77,CN,1702005272
532,zhoushan,30.0108,122.2047,16.94,67,24,8.83,CN,1702005272
533,oranjemund,-28.55,16.4333,15.42,96,23,2.23,NA,1702005273
534,merizo village,13.2658,144.6691,31.31,77,100,8.16,GU,1702005274
535,montepuez,-13.1256,38.9997,20.8,94,26,1.66,MZ,1702005274
536,val-d'or,48.1002,-77.7828,-5.16,96,100,1.28,CA,1702005275
537,kamloops,50.6665,-120.3192,1.99,86,100,0.61,CA,1702004997
538,mo i rana,66.3128,14.1428,-7.74,62,75,0.51,NO,1702005276
539,belyy yar,53.6039,91.3903,-25.06,77,100,0.0,RU,1702005277
540,nabire,-3.3667,135.4833,30.86,64,74,1.44,ID,1702005277
541,salinopolis,-0.6136,-47.3561,27.22,80,40,4.72,BR,1702005279
542,kabirwala,30.4068,71.8667,12.92,31,0,2.47,PK,1702005279
543,christchurch,-43.5333,172.6333,20.3,63,40,7.2,NZ,1702005162
544,mezhdurechensk,53.6942,88.0603,-19.08,97,100,0.4,RU,1702005279
545,rio de janeiro,-22.9028,-43.2075,29.98,70,40,1.54,BR,1702004716
546,emerald,-23.5333,148.1667,31.86,39,0,8.73,AU,1702005280
547,valdivia,-39.8142,-73.2459,10.38,91,0,0.26,CL,1702005055
548,paradip garh,20.3167,86.6167,22.64,78,3,4.26,IN,1702005281
549,pacific grove,36.6177,-121.9166,12.06,90,100,0.89,US,1702005243
550,la libertad,-2.2333,-80.9,23.38,85,76,3.6,EC,1702005281
551,kagoro,9.6,8.3833,20.19,20,99,2.31,NG,1702005281
552,usinsk,65.9939,57.5281,-19.96,99,100,3.13,RU,1702005282
553,hilo,19.7297,-155.09,24.85,80,75,3.6,US,1702005282
554,colonia menno,-22.3667,-59.8167,24.35,92,100,4.25,PY,1702005282
555,langepas,61.2544,75.2124,-25.41,90,100,4.81,RU,1702005283
556,wuwei,37.9281,102.6414,3.96,26,0,0.86,CN,1702005283
